"name","lon","lat","x_3435","y_3435","year","date_opened","geometry_3435","geometry"
"Soldier Field",-87.6165891,41.862322,1179603,1893122,2024,1924,c(1179490.1709057, 1893235.16184349),c(-87.6165891, 41.862322)
"Wintrust Arena",-87.6212489,41.8536754,1178259,1889955,2024,2017,c(1178246.97186211, 1890073.79615549),c(-87.6212489, 41.8536754)
"Guaranteed Rate Field",-87.633577,41.8298107,1174703,1881406,2024,1991,c(1174959.19469725, 1881349.96443555),c(-87.633577, 41.8298107)
"Wrigley Field",-87.6558203,41.9479061,1168634,1924426,2024,1914,c(1168557.26820612, 1924335.28114807),c(-87.6558203, 41.9479061)
"United Center",-87.6766095,41.8813339,1163584,1899780,2024,1994,c(1163087.60658661, 1900032.28595281),c(-87.6766095, 41.8813339)
"UIC Pavilion",-87.6560926,41.8748336,1168816,1897726,2024,1982,c(1168693.44359931, 1897707.00608103),c(-87.6560926, 41.8748336)
