name,pin10,lon,lat,x_3435,y_3435,year,date_opened,year
Soldier Field,1722110002,-87.6165891,41.862322,1179603,1893122,2022,1924
Wintrust Arena,1722320018,-87.6212489,41.8536754,1178259,1889955,2022,2017
Guaranteed Rate Field,1733400049,-87.633577,41.8298107,1174703,1881406,2022,1991
Wrigley Field, 1420227002,-87.6558203,41.9479061,1168634,1924426,2022,1914
United Center,1718201035,-87.6766095,41.8813339,1163584,1899780,2022,1994
UIC Pavilion,1717239022,-87.6560926,41.8748336,1168816,1897726,2022,1982
