name,lon,lat,x_3435,y_3435,year,date_opened
Soldier Field,-87.6165891,41.862322,1179603,1893122,2024,1924
Wintrust Arena,-87.6212489,41.8536754,1178259,1889955,2024,2017
Gauranteed Rate Field,-87.633577,41.8298107,1174703,1881406,2024,1991
Wrigley Field,-87.6558203,41.9479061,1168634,1924426,2024,1914
United Center,-87.6766095,41.8813339,1163584,1899780,2024,1994
UIC Pavilion,-87.6560926,41.8748336,1168816,1897726,2024,1982
